[
  {
    "id": "PH001",
    "name": "Shinjuku Central Pharmacy",
    "district": "Shinjuku",
    "lat": 35.6895,
    "lng": 139.6917,
    "open_24h": true,
    "pharmacist_available": true,
    "contact_number": "+81-3-2000-0001",
    "status": "active"
  },
  {
    "id": "PH002",
    "name": "Shibuya Crossing Pharmacy",
    "district": "Shibuya",
    "lat": 35.6580,
    "lng": 139.7016,
    "open_24h": true,
    "pharmacist_available": true,
    "contact_number": "+81-3-2000-0002",
    "status": "active"
  },
  {
    "id": "PH003",
    "name": "Ginza Wellness Pharmacy",
    "district": "Ginza",
    "lat": 35.6717,
    "lng": 139.7650,
    "open_24h": false,
    "pharmacist_available": true,
    "contact_number": "+81-3-2000-0003",
    "status": "active"
  },
  {
    "id": "PH004",
    "name": "Akihabara Care Pharmacy",
    "district": "Akihabara",
    "lat": 35.7023,
    "lng": 139.7745,
    "open_24h": false,
    "pharmacist_available": true,
    "contact_number": "+81-3-2000-0004",
    "status": "limited_stock"
  },
  {
    "id": "PH005",
    "name": "Asakusa Community Pharmacy",
    "district": "Asakusa",
    "lat": 35.7115,
    "lng": 139.7960,
    "open_24h": false,
    "pharmacist_available": true,
    "contact_number": "+81-3-2000-0005",
    "status": "active"
  },
  {
    "id": "PH006",
    "name": "Ikebukuro Health Pharmacy",
    "district": "Ikebukuro",
    "lat": 35.7295,
    "lng": 139.7109,
    "open_24h": true,
    "pharmacist_available": true,
    "contact_number": "+81-3-2000-0006",
    "status": "active"
  },
  {
    "id": "PH007",
    "name": "Roppongi Night Pharmacy",
    "district": "Roppongi",
    "lat": 35.6605,
    "lng": 139.7292,
    "open_24h": true,
    "pharmacist_available": true,
    "contact_number": "+81-3-2000-0007",
    "status": "active"
  },
  {
    "id": "PH008",
    "name": "Harajuku Street Pharmacy",
    "district": "Harajuku",
    "lat": 35.6653,
    "lng": 139.7023,
    "open_24h": false,
    "pharmacist_available": true,
    "contact_number": "+81-3-2000-0008",
    "status": "active"
  },
  {
    "id": "PH009",
    "name": "Ueno Park Pharmacy",
    "district": "Ueno",
    "lat": 35.7148,
    "lng": 139.7740,
    "open_24h": false,
    "pharmacist_available": true,
    "contact_number": "+81-3-2000-0009",
    "status": "active"
  },
  {
    "id": "PH010",
    "name": "Odaiba Seaside Pharmacy",
    "district": "Odaiba",
    "lat": 35.6267,
    "lng": 139.7750,
    "open_24h": true,
    "pharmacist_available": true,
    "contact_number": "+81-3-2000-0010",
    "status": "active"
  },
  {
    "id": "PH011",
    "name": "Shinagawa Station Pharmacy",
    "district": "Shinagawa",
    "lat": 35.6284,
    "lng": 139.7387,
    "open_24h": true,
    "pharmacist_available": true,
    "contact_number": "+81-3-2000-0011",
    "status": "limited_stock"
  },
  {
    "id": "PH012",
    "name": "Ebisu Care Pharmacy",
    "district": "Ebisu",
    "lat": 35.6468,
    "lng": 139.7134,
    "open_24h": false,
    "pharmacist_available": true,
    "contact_number": "+81-3-2000-0012",
    "status": "active"
  },
  {
    "id": "PH013",
    "name": "Nakameguro Pharmacy",
    "district": "Nakameguro",
    "lat": 35.6442,
    "lng": 139.6990,
    "open_24h": false,
    "pharmacist_available": true,
    "contact_number": "+81-3-2000-0013",
    "status": "active"
  },
  {
    "id": "PH014",
    "name": "Koenji Local Pharmacy",
    "district": "Koenji",
    "lat": 35.7056,
    "lng": 139.6492,
    "open_24h": false,
    "pharmacist_available": false,
    "contact_number": "+81-3-2000-0014",
    "status": "closed"
  },
  {
    "id": "PH015",
    "name": "Toyosu Bay Pharmacy",
    "district": "Toyosu",
    "lat": 35.6450,
    "lng": 139.7850,
    "open_24h": true,
    "pharmacist_available": true,
    "contact_number": "+81-3-2000-0015",
    "status": "active"
  },
  {
    "id": "PH016",
    "name": "Kichijoji Green Pharmacy",
    "district": "Kichijoji",
    "lat": 35.7033,
    "lng": 139.5796,
    "open_24h": false,
    "pharmacist_available": true,
    "contact_number": "+81-3-2000-0016",
    "status": "active"
  },
  {
    "id": "PH017",
    "name": "Meguro Care Pharmacy",
    "district": "Meguro",
    "lat": 35.6330,
    "lng": 139.7150,
    "open_24h": true,
    "pharmacist_available": true,
    "contact_number": "+81-3-2000-0017",
    "status": "active"
  },
  {
    "id": "PH018",
    "name": "Setagaya Family Pharmacy",
    "district": "Setagaya",
    "lat": 35.6467,
    "lng": 139.6533,
    "open_24h": false,
    "pharmacist_available": true,
    "contact_number": "+81-3-2000-0018",
    "status": "active"
  },
  {
    "id": "PH019",
    "name": "Adachi North Pharmacy",
    "district": "Adachi",
    "lat": 35.7750,
    "lng": 139.8040,
    "open_24h": false,
    "pharmacist_available": true,
    "contact_number": "+81-3-2000-0019",
    "status": "active"
  },
  {
    "id": "PH020",
    "name": "Edogawa East Pharmacy",
    "district": "Edogawa",
    "lat": 35.7060,
    "lng": 139.8680,
    "open_24h": true,
    "pharmacist_available": true,
    "contact_number": "+81-3-2000-0020",
    "status": "active"
  },
  {
    "id": "PH021",
    "name": "Chiyoda Central Pharmacy",
    "district": "Chiyoda",
    "lat": 35.6938,
    "lng": 139.7530,
    "open_24h": true,
    "pharmacist_available": true,
    "contact_number": "+81-3-2000-0021",
    "status": "active"
  },
  {
    "id": "PH022",
    "name": "Bunkyo Medical Pharmacy",
    "district": "Bunkyo",
    "lat": 35.7080,
    "lng": 139.7520,
    "open_24h": false,
    "pharmacist_available": true,
    "contact_number": "+81-3-2000-0022",
    "status": "active"
  },
  {
    "id": "PH023",
    "name": "Taito City Pharmacy",
    "district": "Taito",
    "lat": 35.7120,
    "lng": 139.7790,
    "open_24h": false,
    "pharmacist_available": true,
    "contact_number": "+81-3-2000-0023",
    "status": "active"
  },
  {
    "id": "PH024",
    "name": "Koto Urban Pharmacy",
    "district": "Koto",
    "lat": 35.6730,
    "lng": 139.8170,
    "open_24h": true,
    "pharmacist_available": true,
    "contact_number": "+81-3-2000-0024",
    "status": "active"
  },
  {
    "id": "PH025",
    "name": "Sumida River Pharmacy",
    "district": "Sumida",
    "lat": 35.7100,
    "lng": 139.8000,
    "open_24h": false,
    "pharmacist_available": true,
    "contact_number": "+81-3-2000-0025",
    "status": "active"
  },
  {
    "id": "PH026",
    "name": "Katsushika Care Pharmacy",
    "district": "Katsushika",
    "lat": 35.7430,
    "lng": 139.8480,
    "open_24h": false,
    "pharmacist_available": false,
    "contact_number": "+81-3-2000-0026",
    "status": "closed"
  },
  {
    "id": "PH027",
    "name": "Nerima Health Pharmacy",
    "district": "Nerima",
    "lat": 35.7356,
    "lng": 139.6517,
    "open_24h": true,
    "pharmacist_available": true,
    "contact_number": "+81-3-2000-0027",
    "status": "active"
  },
  {
    "id": "PH028",
    "name": "Suginami Family Pharmacy",
    "district": "Suginami",
    "lat": 35.6990,
    "lng": 139.6360,
    "open_24h": false,
    "pharmacist_available": true,
    "contact_number": "+81-3-2000-0028",
    "status": "active"
  },
  {
    "id": "PH029",
    "name": "Ota South Pharmacy",
    "district": "Ota",
    "lat": 35.5610,
    "lng": 139.7160,
    "open_24h": true,
    "pharmacist_available": true,
    "contact_number": "+81-3-2000-0029",
    "status": "active"
  },
  {
    "id": "PH030",
    "name": "Minato Bay Pharmacy",
    "district": "Minato",
    "lat": 35.6586,
    "lng": 139.7454,
    "open_24h": true,
    "pharmacist_available": true,
    "contact_number": "+81-3-2000-0030",
    "status": "active"
  }
]