[
  {
    "id": "BS001",
    "name": "Shinjuku Station West Exit",
    "district": "Shinjuku",
    "lat": 35.6900,
    "lng": 139.7005,
    "routes": ["R1", "R5", "R12"],
    "buses_per_hour": 20,
    "average_wait_time_min": 5,
    "next_arrival_min": 3,
    "passenger_load": "high",
    "status": "active"
  },
  {
    "id": "BS002",
    "name": "Shibuya Crossing Stop",
    "district": "Shibuya",
    "lat": 35.6595,
    "lng": 139.7005,
    "routes": ["R2", "R8"],
    "buses_per_hour": 18,
    "average_wait_time_min": 6,
    "next_arrival_min": 4,
    "passenger_load": "high",
    "status": "active"
  },
  {
    "id": "BS003",
    "name": "Ginza Main Street Stop",
    "district": "Ginza",
    "lat": 35.6717,
    "lng": 139.7650,
    "routes": ["R3", "R6"],
    "buses_per_hour": 15,
    "average_wait_time_min": 7,
    "next_arrival_min": 5,
    "passenger_load": "medium",
    "status": "active"
  },
  {
    "id": "BS004",
    "name": "Akihabara Electric Town Stop",
    "district": "Akihabara",
    "lat": 35.7023,
    "lng": 139.7745,
    "routes": ["R4", "R9"],
    "buses_per_hour": 14,
    "average_wait_time_min": 6,
    "next_arrival_min": 2,
    "passenger_load": "medium",
    "status": "active"
  },
  {
    "id": "BS005",
    "name": "Asakusa Kaminarimon Stop",
    "district": "Asakusa",
    "lat": 35.7115,
    "lng": 139.7960,
    "routes": ["R5", "R10"],
    "buses_per_hour": 12,
    "average_wait_time_min": 8,
    "next_arrival_min": 6,
    "passenger_load": "medium",
    "status": "active"
  },
  {
    "id": "BS006",
    "name": "Ikebukuro East Exit Stop",
    "district": "Ikebukuro",
    "lat": 35.7295,
    "lng": 139.7109,
    "routes": ["R1", "R7"],
    "buses_per_hour": 16,
    "average_wait_time_min": 6,
    "next_arrival_min": 3,
    "passenger_load": "high",
    "status": "active"
  },
  {
    "id": "BS007",
    "name": "Roppongi Hills Stop",
    "district": "Roppongi",
    "lat": 35.6605,
    "lng": 139.7292,
    "routes": ["R8", "R11"],
    "buses_per_hour": 13,
    "average_wait_time_min": 7,
    "next_arrival_min": 5,
    "passenger_load": "medium",
    "status": "active"
  },
  {
    "id": "BS008",
    "name": "Harajuku Station Stop",
    "district": "Harajuku",
    "lat": 35.6653,
    "lng": 139.7023,
    "routes": ["R2", "R6"],
    "buses_per_hour": 17,
    "average_wait_time_min": 5,
    "next_arrival_min": 2,
    "passenger_load": "high",
    "status": "active"
  },
  {
    "id": "BS009",
    "name": "Ueno Park Entrance Stop",
    "district": "Ueno",
    "lat": 35.7148,
    "lng": 139.7740,
    "routes": ["R3", "R9"],
    "buses_per_hour": 11,
    "average_wait_time_min": 8,
    "next_arrival_min": 6,
    "passenger_load": "medium",
    "status": "active"
  },
  {
    "id": "BS010",
    "name": "Odaiba Seaside Stop",
    "district": "Odaiba",
    "lat": 35.6267,
    "lng": 139.7750,
    "routes": ["R10", "R12"],
    "buses_per_hour": 10,
    "average_wait_time_min": 9,
    "next_arrival_min": 7,
    "passenger_load": "low",
    "status": "active"
  },
  {
    "id": "BS011",
    "name": "Shinagawa Station Stop",
    "district": "Shinagawa",
    "lat": 35.6284,
    "lng": 139.7387,
    "routes": ["R4", "R11"],
    "buses_per_hour": 15,
    "average_wait_time_min": 6,
    "next_arrival_min": 4,
    "passenger_load": "medium",
    "status": "active"
  },
  {
    "id": "BS012",
    "name": "Ebisu Garden Place Stop",
    "district": "Ebisu",
    "lat": 35.6468,
    "lng": 139.7134,
    "routes": ["R5", "R7"],
    "buses_per_hour": 12,
    "average_wait_time_min": 7,
    "next_arrival_min": 5,
    "passenger_load": "medium",
    "status": "active"
  },
  {
    "id": "BS013",
    "name": "Nakameguro Station Stop",
    "district": "Nakameguro",
    "lat": 35.6442,
    "lng": 139.6990,
    "routes": ["R6", "R8"],
    "buses_per_hour": 10,
    "average_wait_time_min": 8,
    "next_arrival_min": 6,
    "passenger_load": "low",
    "status": "active"
  },
  {
    "id": "BS014",
    "name": "Koenji North Stop",
    "district": "Koenji",
    "lat": 35.7056,
    "lng": 139.6492,
    "routes": ["R1", "R9"],
    "buses_per_hour": 9,
    "average_wait_time_min": 9,
    "next_arrival_min": 7,
    "passenger_load": "low",
    "status": "active"
  },
  {
    "id": "BS015",
    "name": "Shimokitazawa Stop",
    "district": "Shimokitazawa",
    "lat": 35.6614,
    "lng": 139.6680,
    "routes": ["R2", "R10"],
    "buses_per_hour": 11,
    "average_wait_time_min": 8,
    "next_arrival_min": 6,
    "passenger_load": "medium",
    "status": "active"
  },
  {
    "id": "BS016",
    "name": "Tokyo Station Marunouchi Stop",
    "district": "Marunouchi",
    "lat": 35.6812,
    "lng": 139.7671,
    "routes": ["R3", "R12"],
    "buses_per_hour": 22,
    "average_wait_time_min": 4,
    "next_arrival_min": 2,
    "passenger_load": "high",
    "status": "active"
  },
  {
    "id": "BS017",
    "name": "Ryogoku Kokugikan Stop",
    "district": "Ryogoku",
    "lat": 35.6965,
    "lng": 139.7934,
    "routes": ["R7", "R11"],
    "buses_per_hour": 10,
    "average_wait_time_min": 8,
    "next_arrival_min": 5,
    "passenger_load": "medium",
    "status": "active"
  },
  {
    "id": "BS018",
    "name": "Kiyosumi Garden Stop",
    "district": "Kiyosumi",
    "lat": 35.6849,
    "lng": 139.7980,
    "routes": ["R8", "R10"],
    "buses_per_hour": 8,
    "average_wait_time_min": 10,
    "next_arrival_min": 8,
    "passenger_load": "low",
    "status": "active"
  },
  {
    "id": "BS019",
    "name": "Toyosu Market Stop",
    "district": "Toyosu",
    "lat": 35.6450,
    "lng": 139.7850,
    "routes": ["R4", "R9"],
    "buses_per_hour": 13,
    "average_wait_time_min": 7,
    "next_arrival_min": 4,
    "passenger_load": "medium",
    "status": "active"
  },
  {
    "id": "BS020",
    "name": "Nerima Hikari Stop",
    "district": "Nerima",
    "lat": 35.7356,
    "lng": 139.6517,
    "routes": ["R6", "R12"],
    "buses_per_hour": 9,
    "average_wait_time_min": 9,
    "next_arrival_min": 7,
    "passenger_load": "low",
    "status": "active"
  }
]