[
  {
    "id": "AQ001",
    "district": "Shinjuku",
    "lat": 35.6895,
    "lng": 139.6917,
    "aqi": 92,
    "category": "moderate",
    "main_pollutant": "PM2.5",
    "pm25": 55,
    "pm10": 80,
    "no2": 40,
    "o3": 30,
    "co": 1.2,
    "last_updated": "2026-03-24T09:00:00",
    "status": "active"
  },
  {
    "id": "AQ002",
    "district": "Shibuya",
    "lat": 35.6580,
    "lng": 139.7016,
    "aqi": 105,
    "category": "unhealthy",
    "main_pollutant": "PM2.5",
    "pm25": 65,
    "pm10": 90,
    "no2": 50,
    "o3": 35,
    "co": 1.4,
    "last_updated": "2026-03-24T09:05:00",
    "status": "active"
  },
  {
    "id": "AQ003",
    "district": "Ginza",
    "lat": 35.6717,
    "lng": 139.7650,
    "aqi": 88,
    "category": "moderate",
    "main_pollutant": "PM10",
    "pm25": 50,
    "pm10": 85,
    "no2": 38,
    "o3": 28,
    "co": 1.1,
    "last_updated": "2026-03-24T08:55:00",
    "status": "active"
  },
  {
    "id": "AQ004",
    "district": "Akihabara",
    "lat": 35.7023,
    "lng": 139.7745,
    "aqi": 76,
    "category": "moderate",
    "main_pollutant": "NO2",
    "pm25": 45,
    "pm10": 70,
    "no2": 55,
    "o3": 25,
    "co": 1.0,
    "last_updated": "2026-03-24T09:10:00",
    "status": "active"
  },
  {
    "id": "AQ005",
    "district": "Asakusa",
    "lat": 35.7115,
    "lng": 139.7960,
    "aqi": 60,
    "category": "moderate",
    "main_pollutant": "PM2.5",
    "pm25": 35,
    "pm10": 60,
    "no2": 30,
    "o3": 20,
    "co": 0.9,
    "last_updated": "2026-03-24T08:50:00",
    "status": "active"
  },
  {
    "id": "AQ006",
    "district": "Ikebukuro",
    "lat": 35.7295,
    "lng": 139.7109,
    "aqi": 110,
    "category": "unhealthy",
    "main_pollutant": "PM2.5",
    "pm25": 70,
    "pm10": 95,
    "no2": 48,
    "o3": 32,
    "co": 1.5,
    "last_updated": "2026-03-24T09:15:00",
    "status": "active"
  },
  {
    "id": "AQ007",
    "district": "Roppongi",
    "lat": 35.6605,
    "lng": 139.7292,
    "aqi": 95,
    "category": "moderate",
    "main_pollutant": "NO2",
    "pm25": 52,
    "pm10": 78,
    "no2": 60,
    "o3": 29,
    "co": 1.2,
    "last_updated": "2026-03-24T09:00:00",
    "status": "active"
  },
  {
    "id": "AQ008",
    "district": "Harajuku",
    "lat": 35.6653,
    "lng": 139.7023,
    "aqi": 85,
    "category": "moderate",
    "main_pollutant": "PM2.5",
    "pm25": 48,
    "pm10": 72,
    "no2": 35,
    "o3": 27,
    "co": 1.0,
    "last_updated": "2026-03-24T09:08:00",
    "status": "active"
  },
  {
    "id": "AQ009",
    "district": "Ueno",
    "lat": 35.7148,
    "lng": 139.7740,
    "aqi": 70,
    "category": "moderate",
    "main_pollutant": "PM10",
    "pm25": 40,
    "pm10": 75,
    "no2": 32,
    "o3": 22,
    "co": 0.9,
    "last_updated": "2026-03-24T08:45:00",
    "status": "active"
  },
  {
    "id": "AQ010",
    "district": "Odaiba",
    "lat": 35.6267,
    "lng": 139.7750,
    "aqi": 55,
    "category": "good",
    "main_pollutant": "O3",
    "pm25": 30,
    "pm10": 55,
    "no2": 25,
    "o3": 40,
    "co": 0.8,
    "last_updated": "2026-03-24T09:12:00",
    "status": "active"
  },
  {
    "id": "AQ011",
    "district": "Shinagawa",
    "lat": 35.6284,
    "lng": 139.7387,
    "aqi": 100,
    "category": "unhealthy",
    "main_pollutant": "PM2.5",
    "pm25": 68,
    "pm10": 88,
    "no2": 45,
    "o3": 30,
    "co": 1.3,
    "last_updated": "2026-03-24T09:20:00",
    "status": "active"
  },
  {
    "id": "AQ012",
    "district": "Ebisu",
    "lat": 35.6468,
    "lng": 139.7134,
    "aqi": 75,
    "category": "moderate",
    "main_pollutant": "PM2.5",
    "pm25": 42,
    "pm10": 68,
    "no2": 33,
    "o3": 26,
    "co": 1.0,
    "last_updated": "2026-03-24T09:05:00",
    "status": "active"
  },
  {
    "id": "AQ013",
    "district": "Nakameguro",
    "lat": 35.6442,
    "lng": 139.6990,
    "aqi": 65,
    "category": "moderate",
    "main_pollutant": "PM10",
    "pm25": 38,
    "pm10": 70,
    "no2": 28,
    "o3": 24,
    "co": 0.9,
    "last_updated": "2026-03-24T08:55:00",
    "status": "active"
  },
  {
    "id": "AQ014",
    "district": "Koenji",
    "lat": 35.7056,
    "lng": 139.6492,
    "aqi": 58,
    "category": "good",
    "main_pollutant": "PM2.5",
    "pm25": 32,
    "pm10": 60,
    "no2": 25,
    "o3": 22,
    "co": 0.8,
    "last_updated": "2026-03-24T08:50:00",
    "status": "active"
  },
  {
    "id": "AQ015",
    "district": "Toyosu",
    "lat": 35.6450,
    "lng": 139.7850,
    "aqi": 72,
    "category": "moderate",
    "main_pollutant": "NO2",
    "pm25": 40,
    "pm10": 65,
    "no2": 50,
    "o3": 28,
    "co": 1.0,
    "last_updated": "2026-03-24T09:10:00",
    "status": "active"
  }
]