[
  {
    "id": "WM001",
    "district": "Shinjuku",
    "lat": 35.6895,
    "lng": 139.6917,
    "waste_collected_tons_per_day": 420,
    "recycled_percentage": 55,
    "organic_waste_percentage": 25,
    "collection_efficiency": 92,
    "bin_fill_level_percent": 70,
    "status": "normal",
    "last_updated": "2026-03-24T09:00:00Z"
  },
  {
    "id": "WM002",
    "district": "Shibuya",
    "lat": 35.6580,
    "lng": 139.7016,
    "waste_collected_tons_per_day": 390,
    "recycled_percentage": 50,
    "organic_waste_percentage": 30,
    "collection_efficiency": 88,
    "bin_fill_level_percent": 85,
    "status": "overload",
    "last_updated": "2026-03-24T09:05:00Z"
  },
  {
    "id": "WM003",
    "district": "Ginza",
    "lat": 35.6717,
    "lng": 139.7650,
    "waste_collected_tons_per_day": 310,
    "recycled_percentage": 60,
    "organic_waste_percentage": 20,
    "collection_efficiency": 90,
    "bin_fill_level_percent": 65,
    "status": "normal",
    "last_updated": "2026-03-24T08:55:00Z"
  },
  {
    "id": "WM004",
    "district": "Akihabara",
    "lat": 35.7023,
    "lng": 139.7745,
    "waste_collected_tons_per_day": 280,
    "recycled_percentage": 52,
    "organic_waste_percentage": 28,
    "collection_efficiency": 85,
    "bin_fill_level_percent": 75,
    "status": "normal",
    "last_updated": "2026-03-24T09:10:00Z"
  },
  {
    "id": "WM005",
    "district": "Asakusa",
    "lat": 35.7115,
    "lng": 139.7960,
    "waste_collected_tons_per_day": 240,
    "recycled_percentage": 48,
    "organic_waste_percentage": 35,
    "collection_efficiency": 80,
    "bin_fill_level_percent": 78,
    "status": "normal",
    "last_updated": "2026-03-24T08:50:00Z"
  },
  {
    "id": "WM006",
    "district": "Ikebukuro",
    "lat": 35.7295,
    "lng": 139.7109,
    "waste_collected_tons_per_day": 360,
    "recycled_percentage": 53,
    "organic_waste_percentage": 27,
    "collection_efficiency": 87,
    "bin_fill_level_percent": 82,
    "status": "overload",
    "last_updated": "2026-03-24T09:15:00Z"
  },
  {
    "id": "WM007",
    "district": "Roppongi",
    "lat": 35.6605,
    "lng": 139.7292,
    "waste_collected_tons_per_day": 300,
    "recycled_percentage": 58,
    "organic_waste_percentage": 22,
    "collection_efficiency": 89,
    "bin_fill_level_percent": 68,
    "status": "normal",
    "last_updated": "2026-03-24T09:00:00Z"
  },
  {
    "id": "WM008",
    "district": "Harajuku",
    "lat": 35.6653,
    "lng": 139.7023,
    "waste_collected_tons_per_day": 260,
    "recycled_percentage": 50,
    "organic_waste_percentage": 30,
    "collection_efficiency": 84,
    "bin_fill_level_percent": 72,
    "status": "normal",
    "last_updated": "2026-03-24T09:08:00Z"
  },
  {
    "id": "WM009",
    "district": "Ueno",
    "lat": 35.7148,
    "lng": 139.7740,
    "waste_collected_tons_per_day": 270,
    "recycled_percentage": 49,
    "organic_waste_percentage": 31,
    "collection_efficiency": 83,
    "bin_fill_level_percent": 76,
    "status": "normal",
    "last_updated": "2026-03-24T08:45:00Z"
  },
  {
    "id": "WM010",
    "district": "Odaiba",
    "lat": 35.6267,
    "lng": 139.7750,
    "waste_collected_tons_per_day": 220,
    "recycled_percentage": 57,
    "organic_waste_percentage": 25,
    "collection_efficiency": 91,
    "bin_fill_level_percent": 60,
    "status": "underutilized",
    "last_updated": "2026-03-24T09:12:00Z"
  },
  {
    "id": "WM011",
    "district": "Shinagawa",
    "lat": 35.6284,
    "lng": 139.7387,
    "waste_collected_tons_per_day": 330,
    "recycled_percentage": 54,
    "organic_waste_percentage": 26,
    "collection_efficiency": 88,
    "bin_fill_level_percent": 80,
    "status": "overload",
    "last_updated": "2026-03-24T09:20:00Z"
  },
  {
    "id": "WM012",
    "district": "Ebisu",
    "lat": 35.6468,
    "lng": 139.7134,
    "waste_collected_tons_per_day": 250,
    "recycled_percentage": 52,
    "organic_waste_percentage": 28,
    "collection_efficiency": 86,
    "bin_fill_level_percent": 70,
    "status": "normal",
    "last_updated": "2026-03-24T09:05:00Z"
  },
  {
    "id": "WM013",
    "district": "Nakameguro",
    "lat": 35.6442,
    "lng": 139.6990,
    "waste_collected_tons_per_day": 210,
    "recycled_percentage": 55,
    "organic_waste_percentage": 30,
    "collection_efficiency": 87,
    "bin_fill_level_percent": 65,
    "status": "underutilized",
    "last_updated": "2026-03-24T08:55:00Z"
  },
  {
    "id": "WM014",
    "district": "Koenji",
    "lat": 35.7056,
    "lng": 139.6492,
    "waste_collected_tons_per_day": 190,
    "recycled_percentage": 58,
    "organic_waste_percentage": 32,
    "collection_efficiency": 90,
    "bin_fill_level_percent": 58,
    "status": "underutilized",
    "last_updated": "2026-03-24T08:50:00Z"
  },
  {
    "id": "WM015",
    "district": "Toyosu",
    "lat": 35.6450,
    "lng": 139.7850,
    "waste_collected_tons_per_day": 280,
    "recycled_percentage": 53,
    "organic_waste_percentage": 27,
    "collection_efficiency": 88,
    "bin_fill_level_percent": 75,
    "status": "normal",
    "last_updated": "2026-03-24T09:10:00Z"
  }
]