[
  {
    "id": "GY001",
    "name": "Shibuya Fitness Core",
    "lat": 35.6595,
    "lng": 139.7005,
    "address": "2-21-1 Shibuya, Tokyo",
    "gym_type": "commercial",
    "membership_required": true,
    "entry_fee": 800,
    "has_personal_trainers": true,
    "opening_hours": {
      "open": "06:00",
      "close": "23:00"
    },
    "daily_visitors_avg": 420,
    "peak_hours": ["18:00-21:00"],
    "crowd_level": "high",
    "rating": 4.6,
    "maintenance_status": "good"
  },
  {
    "id": "GY002",
    "name": "Shinjuku Power Gym",
    "lat": 35.6938,
    "lng": 139.7034,
    "address": "3-23-1 Shinjuku, Tokyo",
    "gym_type": "commercial",
    "membership_required": true,
    "entry_fee": 700,
    "has_personal_trainers": true,
    "opening_hours": {
      "open": "05:30",
      "close": "24:00"
    },
    "daily_visitors_avg": 520,
    "peak_hours": ["19:00-22:00"],
    "crowd_level": "high",
    "rating": 4.5,
    "maintenance_status": "good"
  },
  {
    "id": "GY003",
    "name": "Ueno Community Gym",
    "lat": 35.7138,
    "lng": 139.7771,
    "address": "Ueno Park Area, Taito City, Tokyo",
    "gym_type": "community",
    "membership_required": false,
    "entry_fee": 300,
    "has_personal_trainers": false,
    "opening_hours": {
      "open": "07:00",
      "close": "21:00"
    },
    "daily_visitors_avg": 180,
    "peak_hours": ["17:00-20:00"],
    "crowd_level": "medium",
    "rating": 4.1,
    "maintenance_status": "average"
  },
  {
    "id": "GY004",
    "name": "Ginza Elite Fitness",
    "lat": 35.6721,
    "lng": 139.7655,
    "address": "4-6-1 Ginza, Chuo City, Tokyo",
    "gym_type": "premium",
    "membership_required": true,
    "entry_fee": 1500,
    "has_personal_trainers": true,
    "opening_hours": {
      "open": "06:00",
      "close": "23:00"
    },
    "daily_visitors_avg": 260,
    "peak_hours": ["18:30-21:30"],
    "crowd_level": "medium",
    "rating": 4.8,
    "maintenance_status": "good"
  },
  {
    "id": "GY005",
    "name": "Akihabara Fit Station",
    "lat": 35.7023,
    "lng": 139.7745,
    "address": "1-10-5 Akihabara, Tokyo",
    "gym_type": "commercial",
    "membership_required": true,
    "entry_fee": 600,
    "has_personal_trainers": false,
    "opening_hours": {
      "open": "06:00",
      "close": "23:00"
    },
    "daily_visitors_avg": 350,
    "peak_hours": ["18:00-21:00"],
    "crowd_level": "medium",
    "rating": 4.3,
    "maintenance_status": "good"
  },
  {
    "id": "GY006",
    "name": "Roppongi Hills Gym",
    "lat": 35.6605,
    "lng": 139.7292,
    "address": "6-10-1 Roppongi, Minato City, Tokyo",
    "gym_type": "premium",
    "membership_required": true,
    "entry_fee": 1800,
    "has_personal_trainers": true,
    "opening_hours": {
      "open": "06:00",
      "close": "23:30"
    },
    "daily_visitors_avg": 240,
    "peak_hours": ["18:00-21:00"],
    "crowd_level": "medium",
    "rating": 4.7,
    "maintenance_status": "good"
  },
  {
    "id": "GY007",
    "name": "Ikebukuro Fitness Hub",
    "lat": 35.7295,
    "lng": 139.7109,
    "address": "1-28-1 Ikebukuro, Tokyo",
    "gym_type": "commercial",
    "membership_required": true,
    "entry_fee": 650,
    "has_personal_trainers": true,
    "opening_hours": {
      "open": "05:00",
      "close": "24:00"
    },
    "daily_visitors_avg": 480,
    "peak_hours": ["19:00-22:00"],
    "crowd_level": "high",
    "rating": 4.4,
    "maintenance_status": "good"
  },
  {
    "id": "GY008",
    "name": "Odaiba Waterfront Gym",
    "lat": 35.6272,
    "lng": 139.7765,
    "address": "1-4-1 Daiba, Minato City, Tokyo",
    "gym_type": "commercial",
    "membership_required": false,
    "entry_fee": 500,
    "has_personal_trainers": false,
    "opening_hours": {
      "open": "07:00",
      "close": "22:00"
    },
    "daily_visitors_avg": 220,
    "peak_hours": ["17:00-20:00"],
    "crowd_level": "medium",
    "rating": 4.2,
    "maintenance_status": "good"
  },
  {
    "id": "GY009",
    "name": "Setagaya Local Gym",
    "lat": 35.6465,
    "lng": 139.6531,
    "address": "4-3 Setagaya, Tokyo",
    "gym_type": "community",
    "membership_required": false,
    "entry_fee": 250,
    "has_personal_trainers": false,
    "opening_hours": {
      "open": "07:00",
      "close": "21:00"
    },
    "daily_visitors_avg": 140,
    "peak_hours": ["17:00-20:00"],
    "crowd_level": "low",
    "rating": 4.0,
    "maintenance_status": "average"
  },
  {
    "id": "GY010",
    "name": "Shinagawa Strength Center",
    "lat": 35.6285,
    "lng": 139.7387,
    "address": "2-1 Shinagawa, Tokyo",
    "gym_type": "commercial",
    "membership_required": true,
    "entry_fee": 700,
    "has_personal_trainers": true,
    "opening_hours": {
      "open": "06:00",
      "close": "23:00"
    },
    "daily_visitors_avg": 390,
    "peak_hours": ["18:00-21:00"],
    "crowd_level": "high",
    "rating": 4.5,
    "maintenance_status": "good"
  },
  {
    "id": "GY011",
    "name": "Nakano Fitness Zone",
    "lat": 35.7074,
    "lng": 139.6638,
    "address": "4-1-1 Nakano, Tokyo",
    "gym_type": "commercial",
    "membership_required": true,
    "entry_fee": 600,
    "has_personal_trainers": false,
    "opening_hours": {
      "open": "06:00",
      "close": "23:00"
    },
    "daily_visitors_avg": 310,
    "peak_hours": ["18:00-21:00"],
    "crowd_level": "medium",
    "rating": 4.3,
    "maintenance_status": "good"
  },
  {
    "id": "GY012",
    "name": "Asakusa Health Studio",
    "lat": 35.7148,
    "lng": 139.7967,
    "address": "2-3-1 Asakusa, Tokyo",
    "gym_type": "community",
    "membership_required": false,
    "entry_fee": 300,
    "has_personal_trainers": false,
    "opening_hours": {
      "open": "07:00",
      "close": "21:00"
    },
    "daily_visitors_avg": 160,
    "peak_hours": ["17:00-20:00"],
    "crowd_level": "low",
    "rating": 4.1,
    "maintenance_status": "average"
  },
  {
    "id": "GY013",
    "name": "Shibuya Night Fitness Club",
    "lat": 35.6595,
    "lng": 139.7005,
    "address": "2-21-1 Shibuya, Tokyo",
    "gym_type": "commercial",
    "membership_required": true,
    "entry_fee": 900,
    "has_personal_trainers": true,
    "opening_hours": {
      "open": "05:00",
      "close": "24:00"
    },
    "daily_visitors_avg": 540,
    "peak_hours": ["20:00-23:00"],
    "crowd_level": "high",
    "rating": 4.6,
    "maintenance_status": "good"
  },
  {
    "id": "GY014",
    "name": "Chiyoda Corporate Gym",
    "lat": 35.6939,
    "lng": 139.7531,
    "address": "1-1 Chiyoda, Tokyo",
    "gym_type": "hotel_based",
    "membership_required": true,
    "entry_fee": 1200,
    "has_personal_trainers": true,
    "opening_hours": {
      "open": "06:00",
      "close": "22:00"
    },
    "daily_visitors_avg": 210,
    "peak_hours": ["18:00-21:00"],
    "crowd_level": "medium",
    "rating": 4.7,
    "maintenance_status": "good"
  },
  {
    "id": "GY015",
    "name": "Koto Fitness Arena",
    "lat": 35.6495,
    "lng": 139.8154,
    "address": "5-2 Koto City, Tokyo",
    "gym_type": "commercial",
    "membership_required": true,
    "entry_fee": 650,
    "has_personal_trainers": true,
    "opening_hours": {
      "open": "06:00",
      "close": "23:00"
    },
    "daily_visitors_avg": 370,
    "peak_hours": ["18:00-21:00"],
    "crowd_level": "medium",
    "rating": 4.4,
    "maintenance_status": "good"
  },
  {
    "id": "GY016",
    "name": "Meguro Wellness Gym",
    "lat": 35.6333,
    "lng": 139.7156,
    "address": "2-4 Meguro, Tokyo",
    "gym_type": "community",
    "membership_required": false,
    "entry_fee": 300,
    "has_personal_trainers": false,
    "opening_hours": {
      "open": "07:00",
      "close": "21:00"
    },
    "daily_visitors_avg": 150,
    "peak_hours": ["17:00-20:00"],
    "crowd_level": "low",
    "rating": 4.2,
    "maintenance_status": "good"
  },
  {
    "id": "GY017",
    "name": "Taito Strength Hub",
    "lat": 35.7122,
    "lng": 139.7805,
    "address": "3-2 Taito, Tokyo",
    "gym_type": "commercial",
    "membership_required": true,
    "entry_fee": 600,
    "has_personal_trainers": false,
    "opening_hours": {
      "open": "06:00",
      "close": "23:00"
    },
    "daily_visitors_avg": 330,
    "peak_hours": ["18:00-21:00"],
    "crowd_level": "medium",
    "rating": 4.3,
    "maintenance_status": "good"
  },
  {
    "id": "GY018",
    "name": "Minato Premium Fitness",
    "lat": 35.6581,
    "lng": 139.7516,
    "address": "1-2 Minato, Tokyo",
    "gym_type": "premium",
    "membership_required": true,
    "entry_fee": 2000,
    "has_personal_trainers": true,
    "opening_hours": {
      "open": "06:00",
      "close": "23:30"
    },
    "daily_visitors_avg": 230,
    "peak_hours": ["18:00-21:00"],
    "crowd_level": "medium",
    "rating": 4.9,
    "maintenance_status": "good"
  },
  {
    "id": "GY019",
    "name": "Edogawa Riverside Gym",
    "lat": 35.6864,
    "lng": 139.8742,
    "address": "7-1 Edogawa, Tokyo",
    "gym_type": "community",
    "membership_required": false,
    "entry_fee": 200,
    "has_personal_trainers": false,
    "opening_hours": {
      "open": "07:00",
      "close": "21:00"
    },
    "daily_visitors_avg": 120,
    "peak_hours": ["17:00-20:00"],
    "crowd_level": "low",
    "rating": 4.0,
    "maintenance_status": "average"
  },
  {
    "id": "GY020",
    "name": "Tokyo Central Fitness Dome",
    "lat": 35.6812,
    "lng": 139.7671,
    "address": "1-1 Chiyoda, Tokyo",
    "gym_type": "commercial",
    "membership_required": true,
    "entry_fee": 850,
    "has_personal_trainers": true,
    "opening_hours": {
      "open": "05:30",
      "close": "23:30"
    },
    "daily_visitors_avg": 460,
    "peak_hours": ["18:00-21:00"],
    "crowd_level": "high",
    "rating": 4.6,
    "maintenance_status": "good"
  }
]
