[
  {
    "id": "LS001",
    "area_name": "Chiyoda",
    "lat": 35.6939,
    "lng": 139.7531,
    "population": 66000,
    "literacy_rate": 99.4,
    "male_literacy_rate": 99.5,
    "female_literacy_rate": 99.3,
    "youth_literacy_rate": 99.8,
    "digital_literacy_rate": 96.2,
    "education_index": 0.95,
    "primary_completion_rate": 99.0,
    "secondary_completion_rate": 98.5,
    "trend": "stable"
  },
  {
    "id": "LS002",
    "area_name": "Chuo",
    "lat": 35.6663,
    "lng": 139.77,
    "population": 170000,
    "literacy_rate": 99.2,
    "male_literacy_rate": 99.3,
    "female_literacy_rate": 99.1,
    "youth_literacy_rate": 99.7,
    "digital_literacy_rate": 95.8,
    "education_index": 0.94,
    "primary_completion_rate": 98.8,
    "secondary_completion_rate": 98.1,
    "trend": "increasing"
  },
  {
    "id": "LS003",
    "area_name": "Minato",
    "lat": 35.6581,
    "lng": 139.7516,
    "population": 260000,
    "literacy_rate": 99.3,
    "male_literacy_rate": 99.4,
    "female_literacy_rate": 99.2,
    "youth_literacy_rate": 99.8,
    "digital_literacy_rate": 96.5,
    "education_index": 0.95,
    "primary_completion_rate": 99.1,
    "secondary_completion_rate": 98.6,
    "trend": "increasing"
  },
  {
    "id": "LS004",
    "area_name": "Shinjuku",
    "lat": 35.6938,
    "lng": 139.7034,
    "population": 340000,
    "literacy_rate": 99.1,
    "male_literacy_rate": 99.2,
    "female_literacy_rate": 99.0,
    "youth_literacy_rate": 99.7,
    "digital_literacy_rate": 95.0,
    "education_index": 0.93,
    "primary_completion_rate": 98.6,
    "secondary_completion_rate": 97.8,
    "trend": "stable"
  },
  {
    "id": "LS005",
    "area_name": "Bunkyo",
    "lat": 35.7081,
    "lng": 139.7528,
    "population": 240000,
    "literacy_rate": 99.5,
    "male_literacy_rate": 99.6,
    "female_literacy_rate": 99.4,
    "youth_literacy_rate": 99.9,
    "digital_literacy_rate": 96.8,
    "education_index": 0.96,
    "primary_completion_rate": 99.3,
    "secondary_completion_rate": 98.9,
    "trend": "increasing"
  },
  {
    "id": "LS006",
    "area_name": "Taito",
    "lat": 35.7126,
    "lng": 139.7798,
    "population": 210000,
    "literacy_rate": 98.9,
    "male_literacy_rate": 99.0,
    "female_literacy_rate": 98.8,
    "youth_literacy_rate": 99.5,
    "digital_literacy_rate": 94.2,
    "education_index": 0.91,
    "primary_completion_rate": 98.2,
    "secondary_completion_rate": 97.0,
    "trend": "stable"
  },
  {
    "id": "LS007",
    "area_name": "Sumida",
    "lat": 35.71,
    "lng": 139.8017,
    "population": 280000,
    "literacy_rate": 98.8,
    "male_literacy_rate": 99.0,
    "female_literacy_rate": 98.6,
    "youth_literacy_rate": 99.4,
    "digital_literacy_rate": 93.8,
    "education_index": 0.9,
    "primary_completion_rate": 98.0,
    "secondary_completion_rate": 96.8,
    "trend": "increasing"
  },
  {
    "id": "LS008",
    "area_name": "Koto",
    "lat": 35.6728,
    "lng": 139.8174,
    "population": 520000,
    "literacy_rate": 99.0,
    "male_literacy_rate": 99.1,
    "female_literacy_rate": 98.9,
    "youth_literacy_rate": 99.6,
    "digital_literacy_rate": 94.7,
    "education_index": 0.92,
    "primary_completion_rate": 98.4,
    "secondary_completion_rate": 97.5,
    "trend": "increasing"
  },
  {
    "id": "LS009",
    "area_name": "Shinagawa",
    "lat": 35.6092,
    "lng": 139.73,
    "population": 410000,
    "literacy_rate": 99.1,
    "male_literacy_rate": 99.2,
    "female_literacy_rate": 99.0,
    "youth_literacy_rate": 99.7,
    "digital_literacy_rate": 95.2,
    "education_index": 0.93,
    "primary_completion_rate": 98.7,
    "secondary_completion_rate": 97.9,
    "trend": "stable"
  },
  {
    "id": "LS010",
    "area_name": "Meguro",
    "lat": 35.6415,
    "lng": 139.6982,
    "population": 280000,
    "literacy_rate": 99.2,
    "male_literacy_rate": 99.3,
    "female_literacy_rate": 99.1,
    "youth_literacy_rate": 99.7,
    "digital_literacy_rate": 95.6,
    "education_index": 0.94,
    "primary_completion_rate": 98.8,
    "secondary_completion_rate": 98.0,
    "trend": "increasing"
  },
  {
    "id": "LS011",
    "area_name": "Ota",
    "lat": 35.5613,
    "lng": 139.716,
    "population": 740000,
    "literacy_rate": 98.7,
    "male_literacy_rate": 98.9,
    "female_literacy_rate": 98.5,
    "youth_literacy_rate": 99.3,
    "digital_literacy_rate": 93.5,
    "education_index": 0.89,
    "primary_completion_rate": 97.9,
    "secondary_completion_rate": 96.5,
    "trend": "stable"
  },
  {
    "id": "LS012",
    "area_name": "Setagaya",
    "lat": 35.6466,
    "lng": 139.6531,
    "population": 920000,
    "literacy_rate": 99.3,
    "male_literacy_rate": 99.4,
    "female_literacy_rate": 99.2,
    "youth_literacy_rate": 99.8,
    "digital_literacy_rate": 96.0,
    "education_index": 0.95,
    "primary_completion_rate": 99.0,
    "secondary_completion_rate": 98.4,
    "trend": "increasing"
  },
  {
    "id": "LS013",
    "area_name": "Shibuya",
    "lat": 35.6595,
    "lng": 139.7005,
    "population": 230000,
    "literacy_rate": 99.2,
    "male_literacy_rate": 99.3,
    "female_literacy_rate": 99.1,
    "youth_literacy_rate": 99.7,
    "digital_literacy_rate": 96.3,
    "education_index": 0.95,
    "primary_completion_rate": 98.9,
    "secondary_completion_rate": 98.2,
    "trend": "increasing"
  },
  {
    "id": "LS014",
    "area_name": "Nakano",
    "lat": 35.7074,
    "lng": 139.6638,
    "population": 340000,
    "literacy_rate": 99.0,
    "male_literacy_rate": 99.1,
    "female_literacy_rate": 98.9,
    "youth_literacy_rate": 99.6,
    "digital_literacy_rate": 94.8,
    "education_index": 0.92,
    "primary_completion_rate": 98.5,
    "secondary_completion_rate": 97.6,
    "trend": "stable"
  },
  {
    "id": "LS015",
    "area_name": "Suginami",
    "lat": 35.6994,
    "lng": 139.6364,
    "population": 580000,
    "literacy_rate": 99.1,
    "male_literacy_rate": 99.2,
    "female_literacy_rate": 99.0,
    "youth_literacy_rate": 99.7,
    "digital_literacy_rate": 95.1,
    "education_index": 0.93,
    "primary_completion_rate": 98.6,
    "secondary_completion_rate": 97.8,
    "trend": "increasing"
  },
  {
    "id": "LS016",
    "area_name": "Toshima",
    "lat": 35.726,
    "lng": 139.716,
    "population": 300000,
    "literacy_rate": 99.0,
    "male_literacy_rate": 99.1,
    "female_literacy_rate": 98.9,
    "youth_literacy_rate": 99.6,
    "digital_literacy_rate": 94.6,
    "education_index": 0.92,
    "primary_completion_rate": 98.4,
    "secondary_completion_rate": 97.5,
    "trend": "stable"
  },
  {
    "id": "LS017",
    "area_name": "Kita",
    "lat": 35.75,
    "lng": 139.75,
    "population": 350000,
    "literacy_rate": 98.9,
    "male_literacy_rate": 99.0,
    "female_literacy_rate": 98.8,
    "youth_literacy_rate": 99.5,
    "digital_literacy_rate": 94.0,
    "education_index": 0.91,
    "primary_completion_rate": 98.2,
    "secondary_completion_rate": 97.1,
    "trend": "stable"
  },
  {
    "id": "LS018",
    "area_name": "Arakawa",
    "lat": 35.736,
    "lng": 139.783,
    "population": 220000,
    "literacy_rate": 98.8,
    "male_literacy_rate": 98.9,
    "female_literacy_rate": 98.7,
    "youth_literacy_rate": 99.4,
    "digital_literacy_rate": 93.7,
    "education_index": 0.9,
    "primary_completion_rate": 98.0,
    "secondary_completion_rate": 96.8,
    "trend": "stable"
  },
  {
    "id": "LS019",
    "area_name": "Itabashi",
    "lat": 35.751,
    "lng": 139.709,
    "population": 560000,
    "literacy_rate": 99.0,
    "male_literacy_rate": 99.1,
    "female_literacy_rate": 98.9,
    "youth_literacy_rate": 99.6,
    "digital_literacy_rate": 94.5,
    "education_index": 0.92,
    "primary_completion_rate": 98.4,
    "secondary_completion_rate": 97.4,
    "trend": "increasing"
  },
  {
    "id": "LS020",
    "area_name": "Nerima",
    "lat": 35.7356,
    "lng": 139.6517,
    "population": 740000,
    "literacy_rate": 99.1,
    "male_literacy_rate": 99.2,
    "female_literacy_rate": 99.0,
    "youth_literacy_rate": 99.7,
    "digital_literacy_rate": 95.0,
    "education_index": 0.93,
    "primary_completion_rate": 98.6,
    "secondary_completion_rate": 97.7,
    "trend": "increasing"
  },
  {
    "id": "LS021",
    "area_name": "Adachi",
    "lat": 35.775,
    "lng": 139.804,
    "population": 690000,
    "literacy_rate": 98.7,
    "male_literacy_rate": 98.9,
    "female_literacy_rate": 98.5,
    "youth_literacy_rate": 99.3,
    "digital_literacy_rate": 93.2,
    "education_index": 0.89,
    "primary_completion_rate": 97.8,
    "secondary_completion_rate": 96.4,
    "trend": "stable"
  },
  {
    "id": "LS022",
    "area_name": "Katsushika",
    "lat": 35.743,
    "lng": 139.847,
    "population": 460000,
    "literacy_rate": 98.8,
    "male_literacy_rate": 99.0,
    "female_literacy_rate": 98.6,
    "youth_literacy_rate": 99.4,
    "digital_literacy_rate": 93.9,
    "education_index": 0.9,
    "primary_completion_rate": 98.1,
    "secondary_completion_rate": 96.9,
    "trend": "stable"
  },
  {
    "id": "LS023",
    "area_name": "Edogawa",
    "lat": 35.706,
    "lng": 139.868,
    "population": 690000,
    "literacy_rate": 98.9,
    "male_literacy_rate": 99.0,
    "female_literacy_rate": 98.8,
    "youth_literacy_rate": 99.5,
    "digital_literacy_rate": 94.3,
    "education_index": 0.91,
    "primary_completion_rate": 98.3,
    "secondary_completion_rate": 97.2,
    "trend": "increasing"
  }
]
